id,createdAt,updatedAt,latitude,longitude,address_labels,province,city,districts,full_address,warehouse_name,provinceId,cityId
14,2022-12-25 09:51:59,2023-01-09 10:22:34,-6.1828538,106.6178524,Gudang 1,Banten,Kota Tangerang,Karawaci,Jl. Gatot Subroto No.8 ,Tangerang,3,456
15,2022-12-25 09:54:08,2023-01-09 10:26:44,-6.3116634,106.9189364,Gudang 2,DKI Jakarta,Kota Jakarta Timur,Cipayung,Jl. Cilangkap Raya No.1,Jakarta,6,154
16,2022-12-25 09:57:11,2023-01-09 10:32:00,-6.9143889,107.6170218,Gudang 3,Jawa Barat,Kota Bandung,Sumur,Jl. Purnawarman No.13-15,Bandung,9,23
17,2023-01-09 06:15:13,2023-01-09 06:15:13,-7.20667,110.44139,Gudang 3,Jawa Tengah,Kabupaten Semarang,Ungaran Timur,jalan raya ungaran,Ungaran,10,398
21,2023-01-26 07:49:28,2023-01-26 07:49:28,-6.12563,106.14999,tg1,Banten,Kota Serang,a,aaaaa,tangerang 1,3,403
